{
  "type": "FeatureCollection",
  "features": [
    {
      "type": "Feature",
      "properties": {
        "id": "metro-35121250",
        "name": "Ratusz-Arsenał",
        "category": "metro",
        "subtype": "subway",
        "source": "overpass",
        "operator": "Metro Warszawskie"
      },
      "geometry": {
        "type": "Point",
        "coordinates": [
          21.0008823,
          52.2452163
        ]
      }
    },
    {
      "type": "Feature",
      "properties": {
        "id": "metro-291414851",
        "name": "Marymont",
        "category": "metro",
        "subtype": "subway",
        "source": "overpass",
        "operator": "Metro Warszawskie"
      },
      "geometry": {
        "type": "Point",
        "coordinates": [
          20.9719399,
          52.2715768
        ]
      }
    },
    {
      "type": "Feature",
      "properties": {
        "id": "metro-307389114",
        "name": "Stare Bielany",
        "category": "metro",
        "subtype": "subway",
        "source": "overpass",
        "operator": "Metro Warszawskie"
      },
      "geometry": {
        "type": "Point",
        "coordinates": [
          20.9493511,
          52.2818277
        ]
      }
    },
    {
      "type": "Feature",
      "properties": {
        "id": "metro-307389115",
        "name": "Wawrzyszew",
        "category": "metro",
        "subtype": "subway",
        "source": "overpass",
        "operator": "Metro Warszawskie"
      },
      "geometry": {
        "type": "Point",
        "coordinates": [
          20.939515,
          52.2863474
        ]
      }
    },
    {
      "type": "Feature",
      "properties": {
        "id": "metro-307389116",
        "name": "Młociny",
        "category": "metro",
        "subtype": "subway",
        "source": "overpass",
        "operator": "Metro Warszawskie"
      },
      "geometry": {
        "type": "Point",
        "coordinates": [
          20.9298678,
          52.2907703
        ]
      }
    },
    {
      "type": "Feature",
      "properties": {
        "id": "metro-1958108834",
        "name": "Słodowiec",
        "category": "metro",
        "subtype": "subway",
        "source": "overpass",
        "operator": "Metro Warszawskie"
      },
      "geometry": {
        "type": "Point",
        "coordinates": [
          20.9601259,
          52.2768261
        ]
      }
    },
    {
      "type": "Feature",
      "properties": {
        "id": "metro-3390187815",
        "name": "Dworzec Wileński",
        "category": "metro",
        "subtype": "subway",
        "source": "overpass",
        "operator": "Metro Warszawskie"
      },
      "geometry": {
        "type": "Point",
        "coordinates": [
          21.0357972,
          52.2537771
        ]
      }
    },
    {
      "type": "Feature",
      "properties": {
        "id": "metro-3390197100",
        "name": "Stadion Narodowy",
        "category": "metro",
        "subtype": "subway",
        "source": "overpass",
        "operator": "Metro Warszawskie"
      },
      "geometry": {
        "type": "Point",
        "coordinates": [
          21.042847,
          52.2468346
        ]
      }
    },
    {
      "type": "Feature",
      "properties": {
        "id": "metro-3390230685",
        "name": "Centrum Nauki Kopernik",
        "category": "metro",
        "subtype": "subway",
        "source": "overpass",
        "operator": "Metro Warszawskie"
      },
      "geometry": {
        "type": "Point",
        "coordinates": [
          21.0317878,
          52.2399148
        ]
      }
    },
    {
      "type": "Feature",
      "properties": {
        "id": "metro-3390237898",
        "name": "Nowy Świat-Uniwersytet",
        "category": "metro",
        "subtype": "subway",
        "source": "overpass",
        "operator": "Metro Warszawskie"
      },
      "geometry": {
        "type": "Point",
        "coordinates": [
          21.0168168,
          52.2368196
        ]
      }
    },
    {
      "type": "Feature",
      "properties": {
        "id": "metro-3390266492",
        "name": "Rondo ONZ",
        "category": "metro",
        "subtype": "subway",
        "source": "overpass",
        "operator": "Metro Warszawskie"
      },
      "geometry": {
        "type": "Point",
        "coordinates": [
          20.9981024,
          52.2330735
        ]
      }
    },
    {
      "type": "Feature",
      "properties": {
        "id": "metro-3390267294",
        "name": "Rondo Daszyńskiego",
        "category": "metro",
        "subtype": "subway",
        "source": "overpass",
        "operator": "Metro Warszawskie"
      },
      "geometry": {
        "type": "Point",
        "coordinates": [
          20.9828946,
          52.2300827
        ]
      }
    },
    {
      "type": "Feature",
      "properties": {
        "id": "metro-3390283399",
        "name": "Kabaty",
        "category": "metro",
        "subtype": "subway",
        "source": "overpass",
        "operator": "Metro Warszawskie"
      },
      "geometry": {
        "type": "Point",
        "coordinates": [
          21.0650711,
          52.1320765
        ]
      }
    },
    {
      "type": "Feature",
      "properties": {
        "id": "metro-3390289961",
        "name": "Stokłosy",
        "category": "metro",
        "subtype": "subway",
        "source": "overpass",
        "operator": "Metro Warszawskie"
      },
      "geometry": {
        "type": "Point",
        "coordinates": [
          21.0347233,
          52.1560759
        ]
      }
    },
    {
      "type": "Feature",
      "properties": {
        "id": "metro-3390290324",
        "name": "Natolin",
        "category": "metro",
        "subtype": "subway",
        "source": "overpass",
        "operator": "Metro Warszawskie"
      },
      "geometry": {
        "type": "Point",
        "coordinates": [
          21.0564351,
          52.1411007
        ]
      }
    },
    {
      "type": "Feature",
      "properties": {
        "id": "metro-3390290598",
        "name": "Imielin",
        "category": "metro",
        "subtype": "subway",
        "source": "overpass",
        "operator": "Metro Warszawskie"
      },
      "geometry": {
        "type": "Point",
        "coordinates": [
          21.0461062,
          52.1493
        ]
      }
    },
    {
      "type": "Feature",
      "properties": {
        "id": "metro-3390304927",
        "name": "Ursynów",
        "category": "metro",
        "subtype": "subway",
        "source": "overpass",
        "operator": "Metro Warszawskie"
      },
      "geometry": {
        "type": "Point",
        "coordinates": [
          21.0276283,
          52.1620456
        ]
      }
    },
    {
      "type": "Feature",
      "properties": {
        "id": "metro-3390306374",
        "name": "Służew",
        "category": "metro",
        "subtype": "subway",
        "source": "overpass",
        "operator": "Metro Warszawskie"
      },
      "geometry": {
        "type": "Point",
        "coordinates": [
          21.0262866,
          52.1727624
        ]
      }
    },
    {
      "type": "Feature",
      "properties": {
        "id": "metro-3390327068",
        "name": "Racławicka",
        "category": "metro",
        "subtype": "subway",
        "source": "overpass",
        "operator": "Metro Warszawskie"
      },
      "geometry": {
        "type": "Point",
        "coordinates": [
          21.0122349,
          52.1988637
        ]
      }
    },
    {
      "type": "Feature",
      "properties": {
        "id": "metro-3390333313",
        "name": "Wierzbno",
        "category": "metro",
        "subtype": "subway",
        "source": "overpass",
        "operator": "Metro Warszawskie"
      },
      "geometry": {
        "type": "Point",
        "coordinates": [
          21.0167966,
          52.1898719
        ]
      }
    },
    {
      "type": "Feature",
      "properties": {
        "id": "metro-3390336021",
        "name": "Wilanowska",
        "category": "metro",
        "subtype": "subway",
        "source": "overpass",
        "operator": "Metro Warszawskie"
      },
      "geometry": {
        "type": "Point",
        "coordinates": [
          21.0231452,
          52.1818168
        ]
      }
    },
    {
      "type": "Feature",
      "properties": {
        "id": "metro-3390342469",
        "name": "Pole Mokotowskie",
        "category": "metro",
        "subtype": "subway",
        "source": "overpass",
        "operator": "Metro Warszawskie"
      },
      "geometry": {
        "type": "Point",
        "coordinates": [
          21.0079298,
          52.2087775
        ]
      }
    },
    {
      "type": "Feature",
      "properties": {
        "id": "metro-3390361095",
        "name": "Politechnika",
        "category": "metro",
        "subtype": "subway",
        "source": "overpass",
        "operator": "Metro Warszawskie"
      },
      "geometry": {
        "type": "Point",
        "coordinates": [
          21.0153031,
          52.2186581
        ]
      }
    },
    {
      "type": "Feature",
      "properties": {
        "id": "metro-3390365405",
        "name": "Centrum",
        "category": "metro",
        "subtype": "subway",
        "source": "overpass",
        "operator": "Metro Warszawskie"
      },
      "geometry": {
        "type": "Point",
        "coordinates": [
          21.010186,
          52.2310069
        ]
      }
    },
    {
      "type": "Feature",
      "properties": {
        "id": "metro-3416840991",
        "name": "Dworzec Gdański",
        "category": "metro",
        "subtype": "subway",
        "source": "overpass",
        "operator": "Metro Warszawskie"
      },
      "geometry": {
        "type": "Point",
        "coordinates": [
          20.9941857,
          52.2580586
        ]
      }
    },
    {
      "type": "Feature",
      "properties": {
        "id": "metro-3615569910",
        "name": "Plac Wilsona",
        "category": "metro",
        "subtype": "subway",
        "source": "overpass",
        "operator": "Metro Warszawskie"
      },
      "geometry": {
        "type": "Point",
        "coordinates": [
          20.9844973,
          52.2692619
        ]
      }
    },
    {
      "type": "Feature",
      "properties": {
        "id": "metro-4930657482",
        "name": "Płocka",
        "category": "metro",
        "subtype": "subway",
        "source": "overpass",
        "operator": "Metro Warszawskie"
      },
      "geometry": {
        "type": "Point",
        "coordinates": [
          20.9663847,
          52.2324542
        ]
      }
    },
    {
      "type": "Feature",
      "properties": {
        "id": "metro-4930657487",
        "name": "Trocka",
        "category": "metro",
        "subtype": "subway",
        "source": "overpass",
        "operator": "Metro Warszawskie"
      },
      "geometry": {
        "type": "Point",
        "coordinates": [
          21.0550586,
          52.2751021
        ]
      }
    },
    {
      "type": "Feature",
      "properties": {
        "id": "metro-5117464830",
        "name": "Świętokrzyska",
        "category": "metro",
        "subtype": "subway",
        "source": "overpass",
        "operator": "Metro Warszawskie"
      },
      "geometry": {
        "type": "Point",
        "coordinates": [
          21.0078988,
          52.2350954
        ]
      }
    },
    {
      "type": "Feature",
      "properties": {
        "id": "metro-5907821373",
        "name": "Księcia Janusza",
        "category": "metro",
        "subtype": "subway",
        "source": "overpass",
        "operator": "Metro Warszawskie"
      },
      "geometry": {
        "type": "Point",
        "coordinates": [
          20.9443771,
          52.2391822
        ]
      }
    },
    {
      "type": "Feature",
      "properties": {
        "id": "metro-5907821374",
        "name": "Młynów",
        "category": "metro",
        "subtype": "subway",
        "source": "overpass",
        "operator": "Metro Warszawskie"
      },
      "geometry": {
        "type": "Point",
        "coordinates": [
          20.9601048,
          52.2376624
        ]
      }
    },
    {
      "type": "Feature",
      "properties": {
        "id": "metro-6053348692",
        "name": "Szwedzka",
        "category": "metro",
        "subtype": "subway",
        "source": "overpass",
        "operator": "Metro Warszawskie"
      },
      "geometry": {
        "type": "Point",
        "coordinates": [
          21.0455232,
          52.2634709
        ]
      }
    },
    {
      "type": "Feature",
      "properties": {
        "id": "metro-6564265270",
        "name": "Targówek Mieszkaniowy",
        "category": "metro",
        "subtype": "subway",
        "source": "overpass",
        "operator": "Metro Warszawskie"
      },
      "geometry": {
        "type": "Point",
        "coordinates": [
          21.0513658,
          52.2692518
        ]
      }
    },
    {
      "type": "Feature",
      "properties": {
        "id": "metro-7362922676",
        "name": "Bemowo",
        "category": "metro",
        "subtype": "subway",
        "source": "overpass",
        "operator": "Metro Warszawskie"
      },
      "geometry": {
        "type": "Point",
        "coordinates": [
          20.9154991,
          52.2392071
        ]
      }
    },
    {
      "type": "Feature",
      "properties": {
        "id": "metro-7362922677",
        "name": "Ulrychów",
        "category": "metro",
        "subtype": "subway",
        "source": "overpass",
        "operator": "Metro Warszawskie"
      },
      "geometry": {
        "type": "Point",
        "coordinates": [
          20.9298652,
          52.2403314
        ]
      }
    },
    {
      "type": "Feature",
      "properties": {
        "id": "metro-10058224345",
        "name": "Bródno",
        "category": "metro",
        "subtype": "subway",
        "source": "overpass",
        "operator": "Metro Warszawskie"
      },
      "geometry": {
        "type": "Point",
        "coordinates": [
          21.0289387,
          52.293585
        ]
      }
    },
    {
      "type": "Feature",
      "properties": {
        "id": "metro-10058224348",
        "name": "Kondratowicza",
        "category": "metro",
        "subtype": "subway",
        "source": "overpass",
        "operator": "Metro Warszawskie"
      },
      "geometry": {
        "type": "Point",
        "coordinates": [
          21.0486889,
          52.2920848
        ]
      }
    },
    {
      "type": "Feature",
      "properties": {
        "id": "metro-10058224349",
        "name": "Zacisze",
        "category": "metro",
        "subtype": "subway",
        "source": "overpass",
        "operator": "Metro Warszawskie"
      },
      "geometry": {
        "type": "Point",
        "coordinates": [
          21.062148,
          52.2837496
        ]
      }
    },
    {
      "type": "Feature",
      "properties": {
        "id": "metro-12176944536",
        "name": "Ruda",
        "category": "metro",
        "subtype": "subway",
        "source": "overpass",
        "operator": "Metro Warszawskie"
      },
      "geometry": {
        "type": "Point",
        "coordinates": [
          20.9760445,
          52.28407
        ]
      }
    },
    {
      "type": "Feature",
      "properties": {
        "id": "metro-12176944604",
        "name": "Rydygiera",
        "category": "metro",
        "subtype": "subway",
        "source": "overpass",
        "operator": "Metro Warszawskie"
      },
      "geometry": {
        "type": "Point",
        "coordinates": [
          20.9812923,
          52.2603619
        ]
      }
    },
    {
      "type": "Feature",
      "properties": {
        "id": "metro-12176944750",
        "name": "Wilanów",
        "category": "metro",
        "subtype": "subway",
        "source": "overpass",
        "operator": "Metro Warszawskie"
      },
      "geometry": {
        "type": "Point",
        "coordinates": [
          21.0845296,
          52.1658054
        ]
      }
    },
    {
      "type": "Feature",
      "properties": {
        "id": "metro-12176944882",
        "name": "Plac Narutowicza",
        "category": "metro",
        "subtype": "subway",
        "source": "overpass"
      },
      "geometry": {
        "type": "Point",
        "coordinates": [
          20.9835565,
          52.2188244
        ]
      }
    },
    {
      "type": "Feature",
      "properties": {
        "id": "metro-12176944921",
        "name": "Cmentarz Żydowski",
        "category": "metro",
        "subtype": "subway",
        "source": "overpass",
        "operator": "Metro Warszawskie"
      },
      "geometry": {
        "type": "Point",
        "coordinates": [
          20.9777075,
          52.2439392
        ]
      }
    },
    {
      "type": "Feature",
      "properties": {
        "id": "metro-12176944922",
        "name": "Okopowa",
        "category": "metro",
        "subtype": "subway",
        "source": "overpass",
        "operator": "Metro Warszawskie"
      },
      "geometry": {
        "type": "Point",
        "coordinates": [
          20.9801501,
          52.2373251
        ]
      }
    },
    {
      "type": "Feature",
      "properties": {
        "id": "metro-12176944923",
        "name": "Rondo Daszyńskiego",
        "category": "metro",
        "subtype": "subway",
        "source": "overpass",
        "operator": "Metro Warszawskie"
      },
      "geometry": {
        "type": "Point",
        "coordinates": [
          20.9837067,
          52.2310304
        ]
      }
    },
    {
      "type": "Feature",
      "properties": {
        "id": "metro-12176944944",
        "name": "Plac Zawiszy",
        "category": "metro",
        "subtype": "subway",
        "source": "overpass",
        "operator": "Metro Warszawskie"
      },
      "geometry": {
        "type": "Point",
        "coordinates": [
          20.9881873,
          52.2258643
        ]
      }
    },
    {
      "type": "Feature",
      "properties": {
        "id": "metro-12176944945",
        "name": "Bitwy Warszawskiej 1920 roku",
        "category": "metro",
        "subtype": "subway",
        "source": "overpass",
        "operator": "Metro Warszawskie"
      },
      "geometry": {
        "type": "Point",
        "coordinates": [
          20.9759243,
          52.2104027
        ]
      }
    },
    {
      "type": "Feature",
      "properties": {
        "id": "metro-12176944946",
        "name": "Wiślicka",
        "category": "metro",
        "subtype": "subway",
        "source": "overpass",
        "operator": "Metro Warszawskie"
      },
      "geometry": {
        "type": "Point",
        "coordinates": [
          20.9767191,
          52.2040927
        ]
      }
    },
    {
      "type": "Feature",
      "properties": {
        "id": "metro-12176944947",
        "name": "Żwirki i Wigury",
        "category": "metro",
        "subtype": "subway",
        "source": "overpass",
        "operator": "metro Warszawskie"
      },
      "geometry": {
        "type": "Point",
        "coordinates": [
          20.9811609,
          52.1941861
        ]
      }
    },
    {
      "type": "Feature",
      "properties": {
        "id": "metro-12176944948",
        "name": "Służewiec",
        "category": "metro",
        "subtype": "subway",
        "source": "overpass",
        "operator": "Metro Warszawskie"
      },
      "geometry": {
        "type": "Point",
        "coordinates": [
          20.9876719,
          52.1817314
        ]
      }
    },
    {
      "type": "Feature",
      "properties": {
        "id": "metro-12176944949",
        "name": "Rondo Unii Europejskiej",
        "category": "metro",
        "subtype": "subway",
        "source": "overpass",
        "operator": "Metro Warszawskie"
      },
      "geometry": {
        "type": "Point",
        "coordinates": [
          21.0031433,
          52.1782694
        ]
      }
    },
    {
      "type": "Feature",
      "properties": {
        "id": "metro-12176944955",
        "name": "Smoluchowskiego",
        "category": "metro",
        "subtype": "subway",
        "source": "overpass",
        "operator": "Metro Warszawskie"
      },
      "geometry": {
        "type": "Point",
        "coordinates": [
          21.0111472,
          52.1791432
        ]
      }
    },
    {
      "type": "Feature",
      "properties": {
        "id": "metro-12176944977",
        "name": "Wilanowska",
        "category": "metro",
        "subtype": "subway",
        "source": "overpass",
        "operator": "Metro Warszawskie"
      },
      "geometry": {
        "type": "Point",
        "coordinates": [
          21.0227473,
          52.1808322
        ]
      }
    },
    {
      "type": "Feature",
      "properties": {
        "id": "metro-12176944978",
        "name": "Dolina Służewiecka",
        "category": "metro",
        "subtype": "subway",
        "source": "overpass",
        "operator": "Metro Warszawskie"
      },
      "geometry": {
        "type": "Point",
        "coordinates": [
          21.0442205,
          52.175134
        ]
      }
    },
    {
      "type": "Feature",
      "properties": {
        "id": "metro-12176944991",
        "name": "Patkowskiego",
        "category": "metro",
        "subtype": "subway",
        "source": "overpass",
        "operator": "Metro Warszawskie"
      },
      "geometry": {
        "type": "Point",
        "coordinates": [
          21.0545545,
          52.1726949
        ]
      }
    },
    {
      "type": "Feature",
      "properties": {
        "id": "metro-12176944992",
        "name": "Sobieskiego",
        "category": "metro",
        "subtype": "subway",
        "source": "overpass",
        "operator": "Metro Warszawskie"
      },
      "geometry": {
        "type": "Point",
        "coordinates": [
          21.0679697,
          52.1697255
        ]
      }
    },
    {
      "type": "Feature",
      "properties": {
        "id": "metro-12177923002",
        "name": "Wiatraczna",
        "category": "metro",
        "subtype": "subway",
        "source": "overpass",
        "operator": "Metro Warszawskie"
      },
      "geometry": {
        "type": "Point",
        "coordinates": [
          21.0848817,
          52.2450201
        ]
      }
    },
    {
      "type": "Feature",
      "properties": {
        "id": "metro-12177923035",
        "name": "Gocław",
        "category": "metro",
        "subtype": "subway",
        "source": "overpass",
        "operator": "Metro Warszawskie"
      },
      "geometry": {
        "type": "Point",
        "coordinates": [
          21.0924319,
          52.2251177
        ]
      }
    },
    {
      "type": "Feature",
      "properties": {
        "id": "metro-12177923095",
        "name": "Dworzec Wschodni",
        "category": "metro",
        "subtype": "subway",
        "source": "overpass",
        "operator": "Metro Warszawskie"
      },
      "geometry": {
        "type": "Point",
        "coordinates": [
          21.05125,
          52.2525501
        ]
      }
    },
    {
      "type": "Feature",
      "properties": {
        "id": "metro-12177923096",
        "name": "Mińska",
        "category": "metro",
        "subtype": "subway",
        "source": "overpass",
        "operator": "Metro Warszawskie"
      },
      "geometry": {
        "type": "Point",
        "coordinates": [
          21.0741706,
          52.2510589
        ]
      }
    },
    {
      "type": "Feature",
      "properties": {
        "id": "metro-12177923097",
        "name": "Ostrobramska",
        "category": "metro",
        "subtype": "subway",
        "source": "overpass",
        "operator": "Metro Warszawskie"
      },
      "geometry": {
        "type": "Point",
        "coordinates": [
          21.0980797,
          52.2355881
        ]
      }
    },
    {
      "type": "Feature",
      "properties": {
        "id": "metro-12177923098",
        "name": "Nowaka-Jeziorańskiego",
        "category": "metro",
        "subtype": "subway",
        "source": "overpass",
        "operator": "Metro Warszawskie"
      },
      "geometry": {
        "type": "Point",
        "coordinates": [
          21.0955074,
          52.2311395
        ]
      }
    }
  ]
}