{
  "type": "FeatureCollection",
  "features": [
    {
      "type": "Feature",
      "properties": {
        "id": "metro-1",
        "name": "Ratusz-Arsenał",
        "category": "metro",
        "subtype": "subway",
        "source": "osm",
        "operator": "Metro Warszawskie"
      },
      "geometry": {
        "type": "Point",
        "coordinates": [
          21.0008823,
          52.2452163
        ]
      }
    },
    {
      "type": "Feature",
      "properties": {
        "id": "metro-2",
        "name": "Marymont",
        "category": "metro",
        "subtype": "subway",
        "source": "osm",
        "operator": "Metro Warszawskie"
      },
      "geometry": {
        "type": "Point",
        "coordinates": [
          20.9719399,
          52.2715768
        ]
      }
    },
    {
      "type": "Feature",
      "properties": {
        "id": "metro-3",
        "name": "Stare Bielany",
        "category": "metro",
        "subtype": "subway",
        "source": "osm",
        "operator": "Metro Warszawskie"
      },
      "geometry": {
        "type": "Point",
        "coordinates": [
          20.9493511,
          52.2818277
        ]
      }
    },
    {
      "type": "Feature",
      "properties": {
        "id": "metro-4",
        "name": "Wawrzyszew",
        "category": "metro",
        "subtype": "subway",
        "source": "osm",
        "operator": "Metro Warszawskie"
      },
      "geometry": {
        "type": "Point",
        "coordinates": [
          20.939515,
          52.2863474
        ]
      }
    },
    {
      "type": "Feature",
      "properties": {
        "id": "metro-5",
        "name": "Młociny",
        "category": "metro",
        "subtype": "subway",
        "source": "osm",
        "operator": "Metro Warszawskie"
      },
      "geometry": {
        "type": "Point",
        "coordinates": [
          20.9298678,
          52.2907703
        ]
      }
    },
    {
      "type": "Feature",
      "properties": {
        "id": "metro-6",
        "name": "Słodowiec",
        "category": "metro",
        "subtype": "subway",
        "source": "osm",
        "operator": "Metro Warszawskie"
      },
      "geometry": {
        "type": "Point",
        "coordinates": [
          20.9601259,
          52.2768261
        ]
      }
    },
    {
      "type": "Feature",
      "properties": {
        "id": "metro-7",
        "name": "Dworzec Wileński",
        "category": "metro",
        "subtype": "subway",
        "source": "osm",
        "operator": "Metro Warszawskie"
      },
      "geometry": {
        "type": "Point",
        "coordinates": [
          21.0357972,
          52.2537771
        ]
      }
    },
    {
      "type": "Feature",
      "properties": {
        "id": "metro-8",
        "name": "Stadion Narodowy",
        "category": "metro",
        "subtype": "subway",
        "source": "osm",
        "operator": "Metro Warszawskie"
      },
      "geometry": {
        "type": "Point",
        "coordinates": [
          21.042847,
          52.2468346
        ]
      }
    },
    {
      "type": "Feature",
      "properties": {
        "id": "metro-9",
        "name": "Centrum Nauki Kopernik",
        "category": "metro",
        "subtype": "subway",
        "source": "osm",
        "operator": "Metro Warszawskie"
      },
      "geometry": {
        "type": "Point",
        "coordinates": [
          21.0317878,
          52.2399148
        ]
      }
    },
    {
      "type": "Feature",
      "properties": {
        "id": "metro-10",
        "name": "Nowy Świat-Uniwersytet",
        "category": "metro",
        "subtype": "subway",
        "source": "osm",
        "operator": "Metro Warszawskie"
      },
      "geometry": {
        "type": "Point",
        "coordinates": [
          21.0168168,
          52.2368196
        ]
      }
    },
    {
      "type": "Feature",
      "properties": {
        "id": "metro-11",
        "name": "Rondo ONZ",
        "category": "metro",
        "subtype": "subway",
        "source": "osm",
        "operator": "Metro Warszawskie"
      },
      "geometry": {
        "type": "Point",
        "coordinates": [
          20.9981024,
          52.2330735
        ]
      }
    },
    {
      "type": "Feature",
      "properties": {
        "id": "metro-12",
        "name": "Rondo Daszyńskiego",
        "category": "metro",
        "subtype": "subway",
        "source": "osm",
        "operator": "Metro Warszawskie"
      },
      "geometry": {
        "type": "Point",
        "coordinates": [
          20.9828946,
          52.2300827
        ]
      }
    },
    {
      "type": "Feature",
      "properties": {
        "id": "metro-13",
        "name": "Kabaty",
        "category": "metro",
        "subtype": "subway",
        "source": "osm",
        "operator": "Metro Warszawskie"
      },
      "geometry": {
        "type": "Point",
        "coordinates": [
          21.0650711,
          52.1320765
        ]
      }
    },
    {
      "type": "Feature",
      "properties": {
        "id": "metro-14",
        "name": "Stokłosy",
        "category": "metro",
        "subtype": "subway",
        "source": "osm",
        "operator": "Metro Warszawskie"
      },
      "geometry": {
        "type": "Point",
        "coordinates": [
          21.0347233,
          52.1560759
        ]
      }
    },
    {
      "type": "Feature",
      "properties": {
        "id": "metro-15",
        "name": "Natolin",
        "category": "metro",
        "subtype": "subway",
        "source": "osm",
        "operator": "Metro Warszawskie"
      },
      "geometry": {
        "type": "Point",
        "coordinates": [
          21.0564351,
          52.1411007
        ]
      }
    },
    {
      "type": "Feature",
      "properties": {
        "id": "metro-16",
        "name": "Imielin",
        "category": "metro",
        "subtype": "subway",
        "source": "osm",
        "operator": "Metro Warszawskie"
      },
      "geometry": {
        "type": "Point",
        "coordinates": [
          21.0461062,
          52.1493
        ]
      }
    },
    {
      "type": "Feature",
      "properties": {
        "id": "metro-17",
        "name": "Ursynów",
        "category": "metro",
        "subtype": "subway",
        "source": "osm",
        "operator": "Metro Warszawskie"
      },
      "geometry": {
        "type": "Point",
        "coordinates": [
          21.0276283,
          52.1620456
        ]
      }
    },
    {
      "type": "Feature",
      "properties": {
        "id": "metro-18",
        "name": "Służew",
        "category": "metro",
        "subtype": "subway",
        "source": "osm",
        "operator": "Metro Warszawskie"
      },
      "geometry": {
        "type": "Point",
        "coordinates": [
          21.0262866,
          52.1727624
        ]
      }
    },
    {
      "type": "Feature",
      "properties": {
        "id": "metro-19",
        "name": "Racławicka",
        "category": "metro",
        "subtype": "subway",
        "source": "osm",
        "operator": "Metro Warszawskie"
      },
      "geometry": {
        "type": "Point",
        "coordinates": [
          21.0122349,
          52.1988637
        ]
      }
    },
    {
      "type": "Feature",
      "properties": {
        "id": "metro-20",
        "name": "Wierzbno",
        "category": "metro",
        "subtype": "subway",
        "source": "osm",
        "operator": "Metro Warszawskie"
      },
      "geometry": {
        "type": "Point",
        "coordinates": [
          21.0167966,
          52.1898719
        ]
      }
    },
    {
      "type": "Feature",
      "properties": {
        "id": "metro-21",
        "name": "Wilanowska",
        "category": "metro",
        "subtype": "subway",
        "source": "osm",
        "operator": "Metro Warszawskie"
      },
      "geometry": {
        "type": "Point",
        "coordinates": [
          21.0231452,
          52.1818168
        ]
      }
    },
    {
      "type": "Feature",
      "properties": {
        "id": "metro-22",
        "name": "Pole Mokotowskie",
        "category": "metro",
        "subtype": "subway",
        "source": "osm",
        "operator": "Metro Warszawskie"
      },
      "geometry": {
        "type": "Point",
        "coordinates": [
          21.0079298,
          52.2087775
        ]
      }
    },
    {
      "type": "Feature",
      "properties": {
        "id": "metro-23",
        "name": "Politechnika",
        "category": "metro",
        "subtype": "subway",
        "source": "osm",
        "operator": "Metro Warszawskie"
      },
      "geometry": {
        "type": "Point",
        "coordinates": [
          21.0153031,
          52.2186581
        ]
      }
    },
    {
      "type": "Feature",
      "properties": {
        "id": "metro-24",
        "name": "Centrum",
        "category": "metro",
        "subtype": "subway",
        "source": "osm",
        "operator": "Metro Warszawskie"
      },
      "geometry": {
        "type": "Point",
        "coordinates": [
          21.010186,
          52.2310069
        ]
      }
    },
    {
      "type": "Feature",
      "properties": {
        "id": "metro-25",
        "name": "Dworzec Gdański",
        "category": "metro",
        "subtype": "subway",
        "source": "osm",
        "operator": "Metro Warszawskie"
      },
      "geometry": {
        "type": "Point",
        "coordinates": [
          20.9941857,
          52.2580586
        ]
      }
    },
    {
      "type": "Feature",
      "properties": {
        "id": "metro-26",
        "name": "Plac Wilsona",
        "category": "metro",
        "subtype": "subway",
        "source": "osm",
        "operator": "Metro Warszawskie"
      },
      "geometry": {
        "type": "Point",
        "coordinates": [
          20.9844973,
          52.2692619
        ]
      }
    },
    {
      "type": "Feature",
      "properties": {
        "id": "metro-27",
        "name": "Płocka",
        "category": "metro",
        "subtype": "subway",
        "source": "osm",
        "operator": "Metro Warszawskie"
      },
      "geometry": {
        "type": "Point",
        "coordinates": [
          20.9663847,
          52.2324542
        ]
      }
    },
    {
      "type": "Feature",
      "properties": {
        "id": "metro-28",
        "name": "Trocka",
        "category": "metro",
        "subtype": "subway",
        "source": "osm",
        "operator": "Metro Warszawskie"
      },
      "geometry": {
        "type": "Point",
        "coordinates": [
          21.0550586,
          52.2751021
        ]
      }
    },
    {
      "type": "Feature",
      "properties": {
        "id": "metro-29",
        "name": "Świętokrzyska",
        "category": "metro",
        "subtype": "subway",
        "source": "osm",
        "operator": "Metro Warszawskie"
      },
      "geometry": {
        "type": "Point",
        "coordinates": [
          21.0078988,
          52.2350954
        ]
      }
    },
    {
      "type": "Feature",
      "properties": {
        "id": "metro-30",
        "name": "Księcia Janusza",
        "category": "metro",
        "subtype": "subway",
        "source": "osm",
        "operator": "Metro Warszawskie"
      },
      "geometry": {
        "type": "Point",
        "coordinates": [
          20.9443771,
          52.2391822
        ]
      }
    },
    {
      "type": "Feature",
      "properties": {
        "id": "metro-31",
        "name": "Młynów",
        "category": "metro",
        "subtype": "subway",
        "source": "osm",
        "operator": "Metro Warszawskie"
      },
      "geometry": {
        "type": "Point",
        "coordinates": [
          20.9601048,
          52.2376624
        ]
      }
    },
    {
      "type": "Feature",
      "properties": {
        "id": "metro-32",
        "name": "Szwedzka",
        "category": "metro",
        "subtype": "subway",
        "source": "osm",
        "operator": "Metro Warszawskie"
      },
      "geometry": {
        "type": "Point",
        "coordinates": [
          21.0455232,
          52.2634709
        ]
      }
    },
    {
      "type": "Feature",
      "properties": {
        "id": "metro-33",
        "name": "Targówek Mieszkaniowy",
        "category": "metro",
        "subtype": "subway",
        "source": "osm",
        "operator": "Metro Warszawskie"
      },
      "geometry": {
        "type": "Point",
        "coordinates": [
          21.0513658,
          52.2692518
        ]
      }
    },
    {
      "type": "Feature",
      "properties": {
        "id": "metro-34",
        "name": "Bemowo",
        "category": "metro",
        "subtype": "subway",
        "source": "osm",
        "operator": "Metro Warszawskie"
      },
      "geometry": {
        "type": "Point",
        "coordinates": [
          20.9154991,
          52.2392071
        ]
      }
    },
    {
      "type": "Feature",
      "properties": {
        "id": "metro-35",
        "name": "Ulrychów",
        "category": "metro",
        "subtype": "subway",
        "source": "osm",
        "operator": "Metro Warszawskie"
      },
      "geometry": {
        "type": "Point",
        "coordinates": [
          20.9298652,
          52.2403314
        ]
      }
    },
    {
      "type": "Feature",
      "properties": {
        "id": "metro-36",
        "name": "Bródno",
        "category": "metro",
        "subtype": "subway",
        "source": "osm",
        "operator": "Metro Warszawskie"
      },
      "geometry": {
        "type": "Point",
        "coordinates": [
          21.0289387,
          52.293585
        ]
      }
    },
    {
      "type": "Feature",
      "properties": {
        "id": "metro-37",
        "name": "Kondratowicza",
        "category": "metro",
        "subtype": "subway",
        "source": "osm",
        "operator": "Metro Warszawskie"
      },
      "geometry": {
        "type": "Point",
        "coordinates": [
          21.0486889,
          52.2920848
        ]
      }
    },
    {
      "type": "Feature",
      "properties": {
        "id": "metro-38",
        "name": "Zacisze",
        "category": "metro",
        "subtype": "subway",
        "source": "osm",
        "operator": "Metro Warszawskie"
      },
      "geometry": {
        "type": "Point",
        "coordinates": [
          21.062148,
          52.2837496
        ]
      }
    }
  ]
}